{
    "directories": [{
        "name": "Makro Strubens Valley",
        "logo": "Makro",
        "location": "Roodepoort",
        "address": "(+27) 0860 600 999",
        "telephone": "0860 600 999",
        "description": "Online shopping",
        "url": "https://makro.co.za/"
      },
      {
        "name": "MTN Business South Africa",
        "logo": "MTN",
        "location": "Johannesburg",
        "address": "Corner H. Potgieter Christiaan de Wet Rd,Roodepoort, 1735",
        "telephone": "011 912 3000",
        "description": " Mobile business and contracts",
        "url": "https://mtn.co.za/"
     },
     {
      "name": "Checkers SA, South Africa",
      "logo": "Checkers",
      "location": "Countrywide",
      "address": "Brackenfell, Western Cape, RSA",
      "telephone": "080 001 0709",
      "description": " FMCG retailer",
      "url": "https://checkers.co.za/"
     },
     {
      "name": "Lion and Safari Park, South Africa",
      "logo": "Lion Park",
      "location": "Hartbeespoort",
      "address": "R512 Pelindaba Rd, Hartbeespoort, Broederstroom",
      "telephone": "087 150 0100",
      "description": " Game drive and Tourism",
      "url": "https://lionandsafaripark.com/"
     },
     
     {
      "name": "SAB Miller, South Africa",
      "logo": "SAB Miller",
      "location": "Johannesburg",
      "address": "krugersdorp, West Rand",
      "telephone": "011 389 1000",
      "description": " Brewing Company",
      "url": "https://sab.co.za/"
     },
     {
      "name": "Virgin Active",
      "logo": "Virgin active",
      "location": "Sandton",
      "address": "4 Helen Rd, Sandton",
      "telephone": "011 883 4633",
      "description": " Gym, classes and fitness",
      "url": "https://virginactive.co.za/"
     },
     {
      "name": "Matrix Warehouse Computers",
      "logo": "Matrix",
      "location": "Shop 30244 Monument",
      "address": "244 Voortrekker Rd, Monument",
      "telephone": "011 954 1500",
      "description": "Sale of Computers equipment",
      "url": "https://matrixwarehouse.co.za/"
     }  
    ]
    }

    